[
  {
    "id": "Vp1kiliceNp6_K8tkRCTCg",
    "name": "La Cocina Restaurant",
    "review_count": 494,
    "category": "Mexican",
    "rating": 4.0,
    "price": "$",
    "city": "Portland",
    "state": "OR",
    "country": "US",
    "Lat": 45.550892,
    "Lng": -122.667025
  },
  {
    "id": "UZUjgF7XW7WkvyUb8_qCiA",
    "name": "Matador NW Portland",
    "review_count": 872,
    "category": "Mexican",
    "rating": 3.5,
    "price": "$$",
    "city": "Portland",
    "state": "OR",
    "country": "US",
    "Lat": 45.5332,
    "Lng": -122.69846
  },
  {
    "id": "B0fBpezDvj2Bp-8KOlMMRw",
    "name": "Nuestra Cocina",
    "review_count": 613,
    "category": "Mexican",
    "rating": 4.5,
    "price": "$$",
    "city": "Portland",
    "state": "OR",
    "country": "US",
    "Lat": 45.50503,
    "Lng": -122.64379
  },
  {
    "id": "Ir1GUgWHVsXpJeRTfk0HTQ",
    "name": "Carlita's - Portland",
    "review_count": 222,
    "category": "NA",
    "rating": 4.0,
    "price": "$$",
    "city": "Portland",
    "state": "OR",
    "country": "US",
    "Lat": 45.53172,
    "Lng": -122.68295
  },
  {
    "id": "3L-ezs0VANOtmdJDlbha1Q",
    "name": "G\u00fcero",
    "review_count": 625,
    "category": "Mexican",
    "rating": 4.5,
    "price": "$$",
    "city": "Portland",
    "state": "OR",
    "country": "US",
    "Lat": 45.5244618,
    "Lng": -122.6370351
  },
  {
    "id": "4ZPcXpYcmsoiZQGn5M8JuQ",
    "name": "Por Qu\u00e9 No? Taqueria",
    "review_count": 1311,
    "category": "Mexican",
    "rating": 4.0,
    "price": "$$",
    "city": "Portland",
    "state": "OR",
    "country": "US",
    "Lat": 45.54824,
    "Lng": -122.67524
  },
  {
    "id": "eUbq0uNxRlXQ6sy7phM7yA",
    "name": "Lechon",
    "review_count": 1731,
    "category": "NA",
    "rating": 4.5,
    "price": "$$",
    "city": "Portland",
    "state": "OR",
    "country": "US",
    "Lat": 45.52129,
    "Lng": -122.67094
  },
  {
    "id": "WWlkufMDXMmgOjnD_s1Wfg",
    "name": "Matador East Portland",
    "review_count": 567,
    "category": "Mexican",
    "rating": 3.5,
    "price": "$$",
    "city": "Portland",
    "state": "OR",
    "country": "US",
    "Lat": 45.5226289,
    "Lng": -122.64089
  },
  {
    "id": "ReDp_lzWLJHDOTzNEBkeqg",
    "name": "El Yike Oaxaqueno",
    "review_count": 8,
    "category": "Mexican",
    "rating": 5.0,
    "price": "$$",
    "city": "Portland",
    "state": "OR",
    "country": "US",
    "Lat": 45.57725687417561,
    "Lng": -122.695073
  },
  {
    "id": "T1PWwJlkRKQfRfkSwaa2Mg",
    "name": "Nico's Cantina",
    "review_count": 20,
    "category": "NA",
    "rating": 3.5,
    "price": "$$",
    "city": "Portland",
    "state": "OR",
    "country": "US",
    "Lat": 45.554019,
    "Lng": -122.601719
  },
  {
    "id": "WytdX0Qxe_w0IeeHx7A69A",
    "name": "Casa Colima",
    "review_count": 309,
    "category": "Mexican",
    "rating": 4.0,
    "price": "$$",
    "city": "Portland",
    "state": "OR",
    "country": "US",
    "Lat": 45.4787,
    "Lng": -122.69502
  },
  {
    "id": "Wm3pOIWzjzttU7TgGGyM7Q",
    "name": "La Taq",
    "review_count": 234,
    "category": "Mexican",
    "rating": 4.0,
    "price": "$$",
    "city": "Portland",
    "state": "OR",
    "country": "US",
    "Lat": 45.56283,
    "Lng": -122.64849414110448
  },
  {
    "id": "kqZa61d6WUJ717Enm5t9ow",
    "name": "Si Senor",
    "review_count": 556,
    "category": "Mexican",
    "rating": 4.0,
    "price": "$$",
    "city": "Beaverton",
    "state": "OR",
    "country": "US",
    "Lat": 45.46082,
    "Lng": -122.793185
  },
  {
    "id": "vUteYFB9WGCei_onyTpm4g",
    "name": "Mi Cava & Cocina",
    "review_count": 102,
    "category": "Mexican",
    "rating": 4.0,
    "price": "$$",
    "city": "Portland",
    "state": "OR",
    "country": "US",
    "Lat": 45.51723,
    "Lng": -122.56305
  },
  {
    "id": "S9zEhTEukbJog-T6g4XnCQ",
    "name": "El Sombrero Mexican Cocina",
    "review_count": 203,
    "category": "Mexican",
    "rating": 4.0,
    "price": "$$",
    "city": "Portland",
    "state": "OR",
    "country": "US",
    "Lat": 45.5585472285748,
    "Lng": -122.551365047693
  },
  {
    "id": "-3hnEon-pSQRGPDr80s3Gw",
    "name": "El Burrito Azteca",
    "review_count": 301,
    "category": "Mexican",
    "rating": 4.0,
    "price": "$",
    "city": "Portland",
    "state": "OR",
    "country": "US",
    "Lat": 45.56965,
    "Lng": -122.6871
  },
  {
    "id": "jKJ7zgb8epZmSFb3PSQvhQ",
    "name": "El Indio",
    "review_count": 266,
    "category": "Mexican",
    "rating": 3.5,
    "price": "$$",
    "city": "Portland",
    "state": "OR",
    "country": "US",
    "Lat": 45.5334551632404,
    "Lng": -122.548278495669
  },
  {
    "id": "ufdfOHSK95tPN3FKvqt9jw",
    "name": "Mi Burrito",
    "review_count": 211,
    "category": "Mexican",
    "rating": 4.5,
    "price": "$",
    "city": "Portland",
    "state": "OR",
    "country": "US",
    "Lat": 45.57747,
    "Lng": -122.67531
  },
  {
    "id": "SCO7tq7IZYbWHs1rqoHwZg",
    "name": "Pepino's Mexican Grill",
    "review_count": 410,
    "category": "Mexican",
    "rating": 4.0,
    "price": "$",
    "city": "Portland",
    "state": "OR",
    "country": "US",
    "Lat": 45.52951,
    "Lng": -122.69829
  },
  {
    "id": "C1MgjUIvsFjhQCKAlTH6jw",
    "name": "de Fuego",
    "review_count": 372,
    "category": "NA",
    "rating": 4.5,
    "price": "$$",
    "city": "Clackamas",
    "state": "OR",
    "country": "US",
    "Lat": 45.430992,
    "Lng": -122.567432
  },
  {
    "id": "IPZF4iK6ozgoAPlutAGcZQ",
    "name": "Casa Colima Mexican Restaurant & Cantina",
    "review_count": 331,
    "category": "Mexican",
    "rating": 4.5,
    "price": "$$",
    "city": "Vancouver",
    "state": "WA",
    "country": "US",
    "Lat": 45.66994741013798,
    "Lng": -122.50749311898535
  },
  {
    "id": "0Ro0-D1SALH5507zeKWV6w",
    "name": "Los Gorditos",
    "review_count": 431,
    "category": "Mexican",
    "rating": 4.0,
    "price": "$",
    "city": "Portland",
    "state": "OR",
    "country": "US",
    "Lat": 45.52419,
    "Lng": -122.68084
  },
  {
    "id": "3vWeEHMTXnndkz_3SIkvdQ",
    "name": "Mezcaluna",
    "review_count": 140,
    "category": "Mexican",
    "rating": 4.0,
    "price": "$$",
    "city": "Happy Valley",
    "state": "OR",
    "country": "US",
    "Lat": 45.43446610259169,
    "Lng": -122.57245468859166
  },
  {
    "id": "3OhrI5CKbpgyy613lkneqA",
    "name": "Taqueria Nueve",
    "review_count": 215,
    "category": "Mexican",
    "rating": 4.0,
    "price": "$$",
    "city": "Portland",
    "state": "OR",
    "country": "US",
    "Lat": 45.5187560624832,
    "Lng": -122.658058595148
  },
  {
    "id": "0Ix62hICO6ypSXfhCvgE6Q",
    "name": "Por Qu\u00e9 No? Taqueria",
    "review_count": 1338,
    "category": "Mexican",
    "rating": 4.0,
    "price": "$$",
    "city": "Portland",
    "state": "OR",
    "country": "US",
    "Lat": 45.51226,
    "Lng": -122.61434
  },
  {
    "id": "T1Gi5BN7eH99tu2x7q8RFA",
    "name": "Tope",
    "review_count": 218,
    "category": "Mexican",
    "rating": 4.0,
    "price": "$$",
    "city": "Portland",
    "state": "OR",
    "country": "US",
    "Lat": 45.52339279601728,
    "Lng": -122.67473021164278
  },
  {
    "id": "LF0EuyDA4-rhb6s36q0wsQ",
    "name": "Andina Restaurant",
    "review_count": 3194,
    "category": "NA",
    "rating": 4.5,
    "price": "$$$",
    "city": "Portland",
    "state": "OR",
    "country": "US",
    "Lat": 45.526348,
    "Lng": -122.684604
  },
  {
    "id": "r_sOAVfNPaXrpjznZpuxeg",
    "name": "Papi Chulo's",
    "review_count": 319,
    "category": "NA",
    "rating": 4.0,
    "price": "$$",
    "city": "Portland",
    "state": "OR",
    "country": "US",
    "Lat": 45.52747,
    "Lng": -122.68448
  },
  {
    "id": "9LdZRadOxNbKs-5-DVEUXA",
    "name": "Ole Ole",
    "review_count": 341,
    "category": "Mexican",
    "rating": 4.0,
    "price": "$",
    "city": "Portland",
    "state": "OR",
    "country": "US",
    "Lat": 45.5231,
    "Lng": -122.64377
  },
  {
    "id": "n16Hf7v3TpWKwjpKoV_01A",
    "name": "Bullard Tavern",
    "review_count": 227,
    "category": "NA",
    "rating": 4.0,
    "price": "$$",
    "city": "Portland",
    "state": "OR",
    "country": "US",
    "Lat": 45.520579918916,
    "Lng": -122.680489942431
  },
  {
    "id": "UH0KxI2ySS5iRHt1kEz-KQ",
    "name": "La Bonita",
    "review_count": 433,
    "category": "Mexican",
    "rating": 4.0,
    "price": "$$",
    "city": "Portland",
    "state": "OR",
    "country": "US",
    "Lat": 45.55919,
    "Lng": -122.63606
  },
  {
    "id": "VDZYhy4uGbPvr0Mnfdka8Q",
    "name": "Mis Tacones",
    "review_count": 63,
    "category": "Mexican",
    "rating": 4.5,
    "price": "$$",
    "city": "Portland",
    "state": "OR",
    "country": "US",
    "Lat": 45.5626,
    "Lng": -122.64799
  },
  {
    "id": "1by7UBDdiBJ9_ZTR9r1uSA",
    "name": "Can Font",
    "review_count": 244,
    "category": "NA",
    "rating": 4.0,
    "price": "$$",
    "city": "Portland",
    "state": "OR",
    "country": "US",
    "Lat": 45.531594403375,
    "Lng": -122.681575219574
  },
  {
    "id": "xcLuF0F-zoQwWDKpQv8vyw",
    "name": "Mazatlan Mexican Restaurant",
    "review_count": 156,
    "category": "Mexican",
    "rating": 3.5,
    "price": "$$",
    "city": "Portland",
    "state": "OR",
    "country": "US",
    "Lat": 45.52286,
    "Lng": -122.69361
  },
  {
    "id": "gpjXZmX9SYXWsVSN3TeKQw",
    "name": "Que Pasa Cantina",
    "review_count": 362,
    "category": "Mexican",
    "rating": 4.0,
    "price": "$$",
    "city": "Portland",
    "state": "OR",
    "country": "US",
    "Lat": 45.512706,
    "Lng": -122.653457
  },
  {
    "id": "u3tq9fqUpLT8xd8E9Rmcug",
    "name": "Ixtapa Family Mexican Restaurant",
    "review_count": 131,
    "category": "NA",
    "rating": 4.5,
    "price": "$$",
    "city": "Portland",
    "state": "OR",
    "country": "US",
    "Lat": 45.4919528125851,
    "Lng": -122.487011812627
  },
  {
    "id": "bx6irVQ_0gY48Q2I5N7GmQ",
    "name": "Margarita Factory - Happy Valley",
    "review_count": 225,
    "category": "Mexican",
    "rating": 4.0,
    "price": "$$",
    "city": "Happy Valley",
    "state": "OR",
    "country": "US",
    "Lat": 45.44156683309567,
    "Lng": -122.57983399006355
  },
  {
    "id": "VEBfMPm0t1nimHOAXuMvrg",
    "name": "Verde Cocina en la Perla",
    "review_count": 80,
    "category": "Mexican",
    "rating": 4.0,
    "price": "$$",
    "city": "Portland",
    "state": "OR",
    "country": "US",
    "Lat": 45.527314,
    "Lng": -122.683124
  },
  {
    "id": "gXPeMjI_D92gG53mZZKmAA",
    "name": "Pambiche",
    "review_count": 1607,
    "category": "NA",
    "rating": 4.0,
    "price": "$$",
    "city": "Portland",
    "state": "OR",
    "country": "US",
    "Lat": 45.5266114238082,
    "Lng": -122.636924008598
  },
  {
    "id": "8Um9SNtNanyrHMxcokYttw",
    "name": "Saraveza",
    "review_count": 300,
    "category": "NA",
    "rating": 4.0,
    "price": "$$",
    "city": "Portland",
    "state": "OR",
    "country": "US",
    "Lat": 45.562585452425,
    "Lng": -122.67718105388
  },
  {
    "id": "6tsGC9lrOQ3sPk6-YDa_Ng",
    "name": "Casa Italia On Division",
    "review_count": 382,
    "category": "Italian",
    "rating": 4.5,
    "price": "$$",
    "city": "Portland",
    "state": "OR",
    "country": "US",
    "Lat": 45.505024,
    "Lng": -122.633946
  },
  {
    "id": "BlgaLlnDU7upilf5MXSqew",
    "name": "Mucca Osteria",
    "review_count": 553,
    "category": "Italian",
    "rating": 4.5,
    "price": "$$$$",
    "city": "Portland",
    "state": "OR",
    "country": "US",
    "Lat": 45.52006,
    "Lng": -122.68288
  },
  {
    "id": "UAido61OqOmR4P7zQB-Duw",
    "name": "Grassa",
    "review_count": 1965,
    "category": "Italian",
    "rating": 4.0,
    "price": "$$",
    "city": "Portland",
    "state": "OR",
    "country": "US",
    "Lat": 45.5221271141913,
    "Lng": -122.683365529158
  },
  {
    "id": "oloBhDAbMhmqA8tlAChj4g",
    "name": "Nostrana",
    "review_count": 1104,
    "category": "Italian",
    "rating": 4.0,
    "price": "$$$",
    "city": "Portland",
    "state": "OR",
    "country": "US",
    "Lat": 45.51755,
    "Lng": -122.6511
  },
  {
    "id": "z1QhExIrJH0cnBdQKrsk0g",
    "name": "Piazza Italia",
    "review_count": 1053,
    "category": "Italian",
    "rating": 4.0,
    "price": "$$",
    "city": "Portland",
    "state": "OR",
    "country": "US",
    "Lat": 45.5287849,
    "Lng": -122.6827188
  },
  {
    "id": "MRkeX1MEM_pFYGhEOhFwxA",
    "name": "a Cena Ristorante",
    "review_count": 859,
    "category": "Italian",
    "rating": 4.5,
    "price": "$$$",
    "city": "Portland",
    "state": "OR",
    "country": "US",
    "Lat": 45.46882,
    "Lng": -122.65278
  },
  {
    "id": "6pPPqhFFPZ9wLxoJmbLefA",
    "name": "Gilda's Italian Restaurant",
    "review_count": 576,
    "category": "Italian",
    "rating": 4.5,
    "price": "$$",
    "city": "Portland",
    "state": "OR",
    "country": "US",
    "Lat": 45.52192,
    "Lng": -122.68837
  },
  {
    "id": "l1xHKh_MKYzDDaq3XOm8Wg",
    "name": "Lucca",
    "review_count": 334,
    "category": "Italian",
    "rating": 4.0,
    "price": "$$",
    "city": "Portland",
    "state": "OR",
    "country": "US",
    "Lat": 45.54801,
    "Lng": -122.64142
  },
  {
    "id": "OhMod_jcp8kz2afxajIErA",
    "name": "Gumba",
    "review_count": 428,
    "category": "Italian",
    "rating": 4.5,
    "price": "$$",
    "city": "Portland",
    "state": "OR",
    "country": "US",
    "Lat": 45.5593735457082,
    "Lng": -122.647200896766
  },
  {
    "id": "LseQNb1hCMTmxtfk38JmWg",
    "name": "Napoli, That's Amore",
    "review_count": 27,
    "category": "NA",
    "rating": 5.0,
    "price": "$$$",
    "city": "Portland",
    "state": "OR",
    "country": "US",
    "Lat": 45.558162689209,
    "Lng": -122.883506774902
  },
  {
    "id": "SRPHFZFJBtKj4M5AOqYPrA",
    "name": "Allora",
    "review_count": 325,
    "category": "Italian",
    "rating": 4.0,
    "price": "$$",
    "city": "Portland",
    "state": "OR",
    "country": "US",
    "Lat": 45.526862794134,
    "Lng": -122.68007062843
  },
  {
    "id": "RCCq2pQPZ4uj_5A5-6sOtA",
    "name": "Fillmore Trattoria",
    "review_count": 153,
    "category": "Italian",
    "rating": 4.5,
    "price": "$$",
    "city": "Portland",
    "state": "OR",
    "country": "US",
    "Lat": 45.53676,
    "Lng": -122.70011
  },
  {
    "id": "HyNXSiCZbLsd16b8Ht0YtQ",
    "name": "Pastini",
    "review_count": 320,
    "category": "Italian",
    "rating": 4.0,
    "price": "$$",
    "city": "Portland",
    "state": "OR",
    "country": "US",
    "Lat": 45.5350393,
    "Lng": -122.6508129
  },
  {
    "id": "YhNxOAihYXTkziyNGOErDg",
    "name": "Serratto",
    "review_count": 704,
    "category": "Italian",
    "rating": 4.0,
    "price": "$$$",
    "city": "Portland",
    "state": "OR",
    "country": "US",
    "Lat": 45.52886,
    "Lng": -122.69484
  },
  {
    "id": "uq4_I-aSfxocPlBb2bUdXA",
    "name": "Cibo",
    "review_count": 517,
    "category": "Italian",
    "rating": 4.0,
    "price": "$$",
    "city": "Portland",
    "state": "OR",
    "country": "US",
    "Lat": 45.504891,
    "Lng": -122.627769
  },
  {
    "id": "qNGQbu_4VH5RciGTV5b_tw",
    "name": "Dame",
    "review_count": 178,
    "category": "Italian",
    "rating": 4.5,
    "price": "$$$",
    "city": "Portland",
    "state": "OR",
    "country": "US",
    "Lat": 45.56251,
    "Lng": -122.63521
  },
  {
    "id": "eY3-ZE8-njGOglACqFYqVQ",
    "name": "La Bottega",
    "review_count": 513,
    "category": "Italian",
    "rating": 4.5,
    "price": "$$",
    "city": "Vancouver",
    "state": "WA",
    "country": "US",
    "Lat": 45.6358283,
    "Lng": -122.6713651
  },
  {
    "id": "snTwH2EKG9LIh8GzPgDv8w",
    "name": "Mama Mia Trattoria",
    "review_count": 927,
    "category": "Italian",
    "rating": 3.5,
    "price": "$$",
    "city": "Portland",
    "state": "OR",
    "country": "US",
    "Lat": 45.5195369,
    "Lng": -122.6739522
  },
  {
    "id": "TKBeBcKzboJG2Miekw-vtQ",
    "name": "Ristorante Di Pompello",
    "review_count": 413,
    "category": "Italian",
    "rating": 3.5,
    "price": "$$",
    "city": "Troutdale",
    "state": "OR",
    "country": "US",
    "Lat": 45.54094,
    "Lng": -122.38752
  },
  {
    "id": "zM8B8ITOWbdFk1x4B7WZOw",
    "name": "Piattino",
    "review_count": 515,
    "category": "Italian",
    "rating": 4.0,
    "price": "$$",
    "city": "Portland",
    "state": "OR",
    "country": "US",
    "Lat": 45.5249827,
    "Lng": -122.6829354
  },
  {
    "id": "JcpHszA7DxLm7yOT9KFokQ",
    "name": "Grassa",
    "review_count": 545,
    "category": "Italian",
    "rating": 4.0,
    "price": "$$",
    "city": "Portland",
    "state": "OR",
    "country": "US",
    "Lat": 45.53358,
    "Lng": -122.69843
  },
  {
    "id": "-loAMvamhl-6kGw9jnetww",
    "name": "Lovely's Fifty Fifty",
    "review_count": 451,
    "category": "NA",
    "rating": 4.5,
    "price": "$$",
    "city": "Portland",
    "state": "OR",
    "country": "US",
    "Lat": 45.5528680273715,
    "Lng": -122.675633132458
  },
  {
    "id": "s8yFdlU3egvZZ11--LdEcQ",
    "name": "Amalfi's Restaurant & Mercato",
    "review_count": 408,
    "category": "Italian",
    "rating": 3.5,
    "price": "$$",
    "city": "Portland",
    "state": "OR",
    "country": "US",
    "Lat": 45.5485038757324,
    "Lng": -122.614730834961
  },
  {
    "id": "rVcwcyCkcVlQWowVDzUvww",
    "name": "Geraldi's",
    "review_count": 385,
    "category": "Italian",
    "rating": 4.5,
    "price": "$",
    "city": "Portland",
    "state": "OR",
    "country": "US",
    "Lat": 45.4933553,
    "Lng": -122.7790393
  },
  {
    "id": "fCS9tmNTZzwEfC-wp1MhBw",
    "name": "Pastini",
    "review_count": 501,
    "category": "Italian",
    "rating": 4.0,
    "price": "$$",
    "city": "Portland",
    "state": "OR",
    "country": "US",
    "Lat": 45.5187,
    "Lng": -122.68203
  },
  {
    "id": "vVH6-wyRwMBEQmf_k24HYg",
    "name": "Riccardos Ristorante",
    "review_count": 232,
    "category": "Italian",
    "rating": 4.0,
    "price": "$$$",
    "city": "Lake Oswego",
    "state": "OR",
    "country": "US",
    "Lat": 45.4100415656599,
    "Lng": -122.720533396253
  },
  {
    "id": "QAnr9-jRd9lqSsE6Nb5WNA",
    "name": "DeNicola's Restaurant",
    "review_count": 385,
    "category": "Italian",
    "rating": 3.5,
    "price": "$$",
    "city": "Portland",
    "state": "OR",
    "country": "US",
    "Lat": 45.4965,
    "Lng": -122.62835
  },
  {
    "id": "0qOqrrssUaQSF1rCVaTfXA",
    "name": "Degarios Ristorante",
    "review_count": 159,
    "category": "Italian",
    "rating": 4.0,
    "price": "$$",
    "city": "Portland",
    "state": "OR",
    "country": "US",
    "Lat": 45.558711,
    "Lng": -122.865702
  },
  {
    "id": "6okBFSsondq1TBdXfWdmiA",
    "name": "Nonna Emilia Ristorante Italiano",
    "review_count": 536,
    "category": "Italian",
    "rating": 3.5,
    "price": "$$",
    "city": "Aloha",
    "state": "OR",
    "country": "US",
    "Lat": 45.49166,
    "Lng": -122.85393
  },
  {
    "id": "FAKt-3vxD0hxltP1Os8dhQ",
    "name": "La Buca",
    "review_count": 404,
    "category": "Italian",
    "rating": 4.0,
    "price": "$$",
    "city": "Portland",
    "state": "OR",
    "country": "US",
    "Lat": 45.52326,
    "Lng": -122.63701
  },
  {
    "id": "Irp5sgl7XASH5ZTw2D47qw",
    "name": "Navarre",
    "review_count": 441,
    "category": "Italian",
    "rating": 4.0,
    "price": "$$",
    "city": "Portland",
    "state": "OR",
    "country": "US",
    "Lat": 45.5230522155762,
    "Lng": -122.637211158872
  },
  {
    "id": "GgDKxGZBmzdyWmExESK14g",
    "name": "The Observatory",
    "review_count": 2205,
    "category": "NA",
    "rating": 4.5,
    "price": "$$",
    "city": "Portland",
    "state": "OR",
    "country": "US",
    "Lat": 45.519263,
    "Lng": -122.580217
  },
  {
    "id": "YDRFdpHZxkfKczVzLO9dKw",
    "name": "Grassa",
    "review_count": 118,
    "category": "Italian",
    "rating": 4.0,
    "price": "$$",
    "city": "Portland",
    "state": "OR",
    "country": "US",
    "Lat": 45.512317,
    "Lng": -122.651872
  },
  {
    "id": "ywxapaOnDn3wyof-35BUIQ",
    "name": "Life of Pie Pizza",
    "review_count": 857,
    "category": "NA",
    "rating": 4.5,
    "price": "$$",
    "city": "Portland",
    "state": "OR",
    "country": "US",
    "Lat": 45.549394,
    "Lng": -122.666518
  },
  {
    "id": "JYK_gPo61ZRCoLRCOIb7Jg",
    "name": "Gino's",
    "review_count": 362,
    "category": "Italian",
    "rating": 4.0,
    "price": "$$",
    "city": "Portland",
    "state": "OR",
    "country": "US",
    "Lat": 45.4648817010791,
    "Lng": -122.653200142086
  },
  {
    "id": "LF0EuyDA4-rhb6s36q0wsQ",
    "name": "Andina Restaurant",
    "review_count": 3194,
    "category": "NA",
    "rating": 4.5,
    "price": "$$$",
    "city": "Portland",
    "state": "OR",
    "country": "US",
    "Lat": 45.526348,
    "Lng": -122.684604
  },
  {
    "id": "S26gxay5At1uey7JuYEtfQ",
    "name": "Trattoria Gallo Nero",
    "review_count": 306,
    "category": "Italian",
    "rating": 4.0,
    "price": "$$",
    "city": "Portland",
    "state": "OR",
    "country": "US",
    "Lat": 45.5255,
    "Lng": -122.68065
  },
  {
    "id": "Qm24Wi_TaNvS7Si_DJqS6Q",
    "name": "Luce",
    "review_count": 323,
    "category": "Italian",
    "rating": 4.0,
    "price": "$$",
    "city": "Portland",
    "state": "OR",
    "country": "US",
    "Lat": 45.522746790694455,
    "Lng": -122.64363153288558
  },
  {
    "id": "X-gfdg_O3b9Z88QSyh-fig",
    "name": "Caffe Mingo",
    "review_count": 267,
    "category": "Italian",
    "rating": 4.0,
    "price": "$$",
    "city": "Portland",
    "state": "OR",
    "country": "US",
    "Lat": 45.5287211816198,
    "Lng": -122.694862158865
  },
  {
    "id": "QH30lRpXf6f3VnhnsD35Gg",
    "name": "Boccellis Ristorante",
    "review_count": 265,
    "category": "Italian",
    "rating": 4.0,
    "price": "$$",
    "city": "Gresham",
    "state": "OR",
    "country": "US",
    "Lat": 45.4995,
    "Lng": -122.43066
  },
  {
    "id": "2yuMreGLJA58xic_gyGA5Q",
    "name": "Montelupo Italian Market",
    "review_count": 157,
    "category": "Italian",
    "rating": 4.0,
    "price": "$$",
    "city": "Portland",
    "state": "OR",
    "country": "US",
    "Lat": 45.525659,
    "Lng": -122.637082
  },
  {
    "id": "DgvT9AiuePR8Z0SKV5BFvw",
    "name": "Il Solito",
    "review_count": 176,
    "category": "Italian",
    "rating": 4.0,
    "price": "$$",
    "city": "Portland",
    "state": "OR",
    "country": "US",
    "Lat": 45.52083,
    "Lng": -122.67803
  },
  {
    "id": "mNWjBazCUCets7hMgaMvuQ",
    "name": "Love Verona Pizza & Pasta",
    "review_count": 330,
    "category": "Italian",
    "rating": 4.0,
    "price": "$",
    "city": "Portland",
    "state": "OR",
    "country": "US",
    "Lat": 45.509568048184704,
    "Lng": -122.68334769885713
  },
  {
    "id": "piuF4DdprICZgRentxcqvg",
    "name": "Giuseppe's Italian Restaurant & Lounge",
    "review_count": 287,
    "category": "Italian",
    "rating": 3.0,
    "price": "$$",
    "city": "Portland",
    "state": "OR",
    "country": "US",
    "Lat": 45.5195426940918,
    "Lng": -122.478248596191
  },
  {
    "id": "uUFBetncPYNVDbBvkLsm9w",
    "name": "Brooklyn Trattoria",
    "review_count": 231,
    "category": "Italian",
    "rating": 4.0,
    "price": "$$",
    "city": "Portland",
    "state": "OR",
    "country": "US",
    "Lat": 45.5542432685967,
    "Lng": -122.836028043114
  },
  {
    "id": "6yxMudTxRtEXBKuFRcjNAQ",
    "name": "Rosmarino Osteria Italiana",
    "review_count": 335,
    "category": "Italian",
    "rating": 5.0,
    "price": "$$",
    "city": "Newberg",
    "state": "OR",
    "country": "US",
    "Lat": 45.3000952,
    "Lng": -122.972049
  },
  {
    "id": "IjDXcfC08t3ZUUruUXzM0w",
    "name": "Farmhouse Kitchen Thai Cuisine",
    "review_count": 493,
    "category": "Thai",
    "rating": 4.0,
    "price": "$$",
    "city": "Portland",
    "state": "OR",
    "country": "US",
    "Lat": 45.52399,
    "Lng": -122.68036
  },
  {
    "id": "6DwR5rF1s6fJn4f-Lvfbuw",
    "name": "Eem",
    "review_count": 831,
    "category": "Thai",
    "rating": 4.5,
    "price": "$$",
    "city": "Portland",
    "state": "OR",
    "country": "US",
    "Lat": 45.550666,
    "Lng": -122.666517
  },
  {
    "id": "BMHRmB0LGzKEAmry6UmVOA",
    "name": "Farmhouse Kitchen Thai Cuisine",
    "review_count": 832,
    "category": "Thai",
    "rating": 4.5,
    "price": "$$",
    "city": "Portland",
    "state": "OR",
    "country": "US",
    "Lat": 45.5118627,
    "Lng": -122.62983453
  },
  {
    "id": "6Qq_ikt4NKgpYwiyntIG4w",
    "name": "Mee Sen Thai Eatery",
    "review_count": 499,
    "category": "Thai",
    "rating": 4.0,
    "price": "$$",
    "city": "Portland",
    "state": "OR",
    "country": "US",
    "Lat": 45.55125654791201,
    "Lng": -122.67530880614665
  },
  {
    "id": "G6eThYB9QMiis73N3QGgPQ",
    "name": "Thai Peacock",
    "review_count": 1044,
    "category": "Thai",
    "rating": 4.0,
    "price": "$$",
    "city": "Portland",
    "state": "OR",
    "country": "US",
    "Lat": 45.522694,
    "Lng": -122.680248
  },
  {
    "id": "6VhcvzGrfYYSygc9UKYfQw",
    "name": "Nong's Khao Man Gai",
    "review_count": 2093,
    "category": "Thai",
    "rating": 4.5,
    "price": "$$",
    "city": "Portland",
    "state": "OR",
    "country": "US",
    "Lat": 45.52235,
    "Lng": -122.6595
  },
  {
    "id": "mhcrCjkp3eDFF4BlpsKftw",
    "name": "SomTum Thai Kitchen",
    "review_count": 67,
    "category": "Thai",
    "rating": 4.5,
    "price": "$$",
    "city": "Portland",
    "state": "OR",
    "country": "US",
    "Lat": 45.51030565476291,
    "Lng": -122.68425506144567
  },
  {
    "id": "1JKK_kmQ6Kxc6NzhQhcAOA",
    "name": "Sivalai Thai Restaurant",
    "review_count": 941,
    "category": "Thai",
    "rating": 4.5,
    "price": "$$",
    "city": "Portland",
    "state": "OR",
    "country": "US",
    "Lat": 45.5190544128418,
    "Lng": -122.613243103027
  },
  {
    "id": "tz-u3ibvFAqGlMd3xqGDjw",
    "name": "Rukdiew Cafe",
    "review_count": 109,
    "category": "Thai",
    "rating": 4.5,
    "price": "$$",
    "city": "Portland",
    "state": "OR",
    "country": "US",
    "Lat": 45.51627,
    "Lng": -122.63936
  },
  {
    "id": "63PrCfBDcRpBf4MT-6_gQQ",
    "name": "Hat Yai",
    "review_count": 647,
    "category": "Thai",
    "rating": 4.5,
    "price": "$$",
    "city": "Portland",
    "state": "OR",
    "country": "US",
    "Lat": 45.562862,
    "Lng": -122.648838
  },
  {
    "id": "k3FzKinhC-dAGdhJGSXl_w",
    "name": "Khao Moo Dang",
    "review_count": 256,
    "category": "Thai",
    "rating": 4.5,
    "price": "$$",
    "city": "Portland",
    "state": "OR",
    "country": "US",
    "Lat": 45.512252,
    "Lng": -122.6328667
  },
  {
    "id": "Nqy2tJV3AGqW9Uil-mzhGA",
    "name": "Khao San Pearl",
    "review_count": 694,
    "category": "Thai",
    "rating": 4.0,
    "price": "$$",
    "city": "Portland",
    "state": "OR",
    "country": "US",
    "Lat": 45.5258341,
    "Lng": -122.6860839
  },
  {
    "id": "eIVqxR8L7HJTbmg9DtTmxA",
    "name": "Sa Bai Thai Cuisine",
    "review_count": 611,
    "category": "Thai",
    "rating": 4.5,
    "price": "$$",
    "city": "Portland",
    "state": "OR",
    "country": "US",
    "Lat": 45.554864656633264,
    "Lng": -122.52786816501512
  },
  {
    "id": "Ys42wLKqrflqmtqkgqOXgA",
    "name": "Luc Lac",
    "review_count": 3934,
    "category": "NA",
    "rating": 4.0,
    "price": "$$",
    "city": "Portland",
    "state": "OR",
    "country": "US",
    "Lat": 45.516868,
    "Lng": -122.675447
  },
  {
    "id": "rdYgIHAQ6lssSd1Q00A1jQ",
    "name": "Zaap Thai",
    "review_count": 231,
    "category": "Thai",
    "rating": 5.0,
    "price": "$$",
    "city": "Portland",
    "state": "OR",
    "country": "US",
    "Lat": 45.54849,
    "Lng": -122.66195
  },
  {
    "id": "B171box8iPNtQOxAFm3MEQ",
    "name": "Thai Bloom!",
    "review_count": 638,
    "category": "Thai",
    "rating": 4.0,
    "price": "$$",
    "city": "Portland",
    "state": "OR",
    "country": "US",
    "Lat": 45.5253344,
    "Lng": -122.6986296
  },
  {
    "id": "UeyTWGFukURbiA1JG-52FQ",
    "name": "YUI",
    "review_count": 48,
    "category": "Thai",
    "rating": 4.5,
    "price": "$$",
    "city": "Portland",
    "state": "OR",
    "country": "US",
    "Lat": 45.56306,
    "Lng": -122.635143
  },
  {
    "id": "NOBZZ0Z5OpboU7RcNlXgeg",
    "name": "9 Dang Fine Thai",
    "review_count": 396,
    "category": "Thai",
    "rating": 4.0,
    "price": "$$",
    "city": "Hillsboro",
    "state": "OR",
    "country": "US",
    "Lat": 45.530645,
    "Lng": -122.916556
  },
  {
    "id": "BtxzDV1dZ-1hAjN5eUsKrg",
    "name": "Top Burmese",
    "review_count": 377,
    "category": "NA",
    "rating": 4.5,
    "price": "$$",
    "city": "Portland",
    "state": "OR",
    "country": "US",
    "Lat": 45.52587,
    "Lng": -122.69464
  },
  {
    "id": "iTDV8qSUaxpQa6PhfrwBoA",
    "name": "Paadee",
    "review_count": 554,
    "category": "Thai",
    "rating": 4.0,
    "price": "$$",
    "city": "Portland",
    "state": "OR",
    "country": "US",
    "Lat": 45.522746,
    "Lng": -122.637124
  },
  {
    "id": "xeFke1EuoYXOZaX1rTQYEw",
    "name": "Thai Champa",
    "review_count": 372,
    "category": "Thai",
    "rating": 4.5,
    "price": "$",
    "city": "Portland",
    "state": "OR",
    "country": "US",
    "Lat": 45.5227328318425,
    "Lng": -122.656441963995
  },
  {
    "id": "x-MhzxmJGN0sh76fgIFNMQ",
    "name": "Red Onion Thai Cuisine",
    "review_count": 596,
    "category": "Thai",
    "rating": 4.0,
    "price": "$$",
    "city": "Portland",
    "state": "OR",
    "country": "US",
    "Lat": 45.53037630013737,
    "Lng": -122.69882339618675
  },
  {
    "id": "z4Rus95P2glp8YMo42XD5A",
    "name": "Langbaan",
    "review_count": 238,
    "category": "Thai",
    "rating": 4.5,
    "price": "$$$$",
    "city": "Portland",
    "state": "OR",
    "country": "US",
    "Lat": 45.5357177,
    "Lng": -122.699664
  },
  {
    "id": "TfWcRkBUAqVIW10zaM3lzw",
    "name": "NOM NOM Restaurant & Grill",
    "review_count": 534,
    "category": "Thai",
    "rating": 4.0,
    "price": "$$",
    "city": "Vancouver",
    "state": "WA",
    "country": "US",
    "Lat": 45.62735104563156,
    "Lng": -122.66922379999998
  },
  {
    "id": "PMJEBkEfjRU-e7_pu13bYw",
    "name": "Monsoon Thai Cuisine",
    "review_count": 272,
    "category": "Thai",
    "rating": 4.0,
    "price": "$$",
    "city": "Portland",
    "state": "OR",
    "country": "US",
    "Lat": 45.5544700622559,
    "Lng": -122.675201416016
  },
  {
    "id": "ez0kkX8ORsk-5k9yG4NpUw",
    "name": "Thai Noon Restaurant",
    "review_count": 304,
    "category": "Thai",
    "rating": 3.5,
    "price": "$$",
    "city": "Portland",
    "state": "OR",
    "country": "US",
    "Lat": 45.5591856,
    "Lng": -122.6382797
  },
  {
    "id": "mLn8qCphHL02NFJH39pTwQ",
    "name": "Thai Ginger",
    "review_count": 281,
    "category": "Thai",
    "rating": 4.0,
    "price": "$$",
    "city": "Portland",
    "state": "OR",
    "country": "US",
    "Lat": 45.56965,
    "Lng": -122.68782
  },
  {
    "id": "IMYh4LJm1ubY5Lw3rz-aqA",
    "name": "Thai Wok Kitchen",
    "review_count": 649,
    "category": "Thai",
    "rating": 4.5,
    "price": "$$",
    "city": "Vancouver",
    "state": "WA",
    "country": "US",
    "Lat": 45.6412515422693,
    "Lng": -122.61760000619225
  },
  {
    "id": "IgHS0-z-Gfat5l5fnBr8jQ",
    "name": "Mee Dee Thai Cuisine",
    "review_count": 131,
    "category": "Thai",
    "rating": 4.0,
    "price": "$$",
    "city": "Portland",
    "state": "OR",
    "country": "US",
    "Lat": 45.5628738,
    "Lng": -122.695343
  },
  {
    "id": "czW6DMBABydwRSeEC9p1Pw",
    "name": "Thai Home Restaurant",
    "review_count": 267,
    "category": "Thai",
    "rating": 4.5,
    "price": "$$",
    "city": "Sandy",
    "state": "OR",
    "country": "US",
    "Lat": 45.39629,
    "Lng": -122.26553
  },
  {
    "id": "JkhXi-3RJtmUTlkjrSdWSw",
    "name": "Thai Orchid Restaurant",
    "review_count": 819,
    "category": "Thai",
    "rating": 4.0,
    "price": "$$",
    "city": "Vancouver",
    "state": "WA",
    "country": "US",
    "Lat": 45.6295205,
    "Lng": -122.6728246
  },
  {
    "id": "uTRhtPKToqep3zNDwwFKwg",
    "name": "Khao Yai Thai Kitchen",
    "review_count": 107,
    "category": "Thai",
    "rating": 4.5,
    "price": "$$",
    "city": "Beaverton",
    "state": "OR",
    "country": "US",
    "Lat": 45.42928598512559,
    "Lng": -122.83121374301344
  },
  {
    "id": "KydCUySLrmwF2yZDH6_dAg",
    "name": "Siri Thai",
    "review_count": 493,
    "category": "Thai",
    "rating": 4.5,
    "price": "$$",
    "city": "Portland",
    "state": "OR",
    "country": "US",
    "Lat": 45.49726,
    "Lng": -122.60824
  },
  {
    "id": "HieP2iu3lRA73caCLWSGyg",
    "name": "Bang Bang",
    "review_count": 254,
    "category": "Thai",
    "rating": 4.0,
    "price": "$$",
    "city": "Portland",
    "state": "OR",
    "country": "US",
    "Lat": 45.5485,
    "Lng": -122.61433
  },
  {
    "id": "-ry6yjzY2KZaQn6Y9oAThg",
    "name": "Pearl Thai Cafe",
    "review_count": 139,
    "category": "Thai",
    "rating": 4.0,
    "price": "$$",
    "city": "Portland",
    "state": "OR",
    "country": "US",
    "Lat": 45.52967,
    "Lng": -122.68593
  },
  {
    "id": "J9W4fPHfZlhwwtDmJYUaYQ",
    "name": "Cha Ba Thai",
    "review_count": 162,
    "category": "Thai",
    "rating": 3.5,
    "price": "$$",
    "city": "Portland",
    "state": "OR",
    "country": "US",
    "Lat": 45.558887,
    "Lng": -122.63425
  },
  {
    "id": "ViDT7_-VFrTdybp2WHiR5Q",
    "name": "Kati Portland",
    "review_count": 419,
    "category": "Thai",
    "rating": 4.5,
    "price": "$$",
    "city": "Portland",
    "state": "OR",
    "country": "US",
    "Lat": 45.50460292536325,
    "Lng": -122.63500546867397
  },
  {
    "id": "fMZRia9Jq8CXgP3Wna6_gg",
    "name": "Cha Ba Thai",
    "review_count": 363,
    "category": "Thai",
    "rating": 4.0,
    "price": "$$",
    "city": "Portland",
    "state": "OR",
    "country": "US",
    "Lat": 45.54255,
    "Lng": -122.60328
  },
  {
    "id": "_AXiiZrpuI-YXggCjfhK6Q",
    "name": "Fish Sauce",
    "review_count": 301,
    "category": "NA",
    "rating": 4.0,
    "price": "$$",
    "city": "Portland",
    "state": "OR",
    "country": "US",
    "Lat": 45.52583,
    "Lng": -122.68846
  },
  {
    "id": "PZHInbhr513et4rVer70dw",
    "name": "Jade Bistro Teahouse & Patisserie",
    "review_count": 986,
    "category": "Thai",
    "rating": 4.0,
    "price": "$$",
    "city": "Portland",
    "state": "OR",
    "country": "US",
    "Lat": 45.466892,
    "Lng": -122.652683
  },
  {
    "id": "IzVwtJ_3G6er8roSNMgtcg",
    "name": "Srisiamchai Thai Restaurant",
    "review_count": 178,
    "category": "Thai",
    "rating": 4.0,
    "price": "$$",
    "city": "Gresham",
    "state": "OR",
    "country": "US",
    "Lat": 45.49942,
    "Lng": -122.431278
  },
  {
    "id": "mHhD2ICjrZvJ3bab1PwEzw",
    "name": "Thai PK Restaurant",
    "review_count": 258,
    "category": "Thai",
    "rating": 4.0,
    "price": "$$",
    "city": "Portland",
    "state": "OR",
    "country": "US",
    "Lat": 45.478836,
    "Lng": -122.673238
  },
  {
    "id": "CPlbpYBShdxbrfwAazYETA",
    "name": "Thai Bloom",
    "review_count": 1264,
    "category": "Thai",
    "rating": 4.0,
    "price": "$$",
    "city": "Beaverton",
    "state": "OR",
    "country": "US",
    "Lat": 45.4918809,
    "Lng": -122.8094451
  },
  {
    "id": "-1mlAuW6bX5FYsYhrrBRLQ",
    "name": "Thai Village",
    "review_count": 292,
    "category": "Thai",
    "rating": 4.0,
    "price": "$$",
    "city": "Wilsonville",
    "state": "OR",
    "country": "US",
    "Lat": 45.30227,
    "Lng": -122.7661
  },
  {
    "id": "1mejOVl_arP-R-iyPC40ww",
    "name": "Chai Thai",
    "review_count": 464,
    "category": "Thai",
    "rating": 4.5,
    "price": "$",
    "city": "Portland",
    "state": "OR",
    "country": "US",
    "Lat": 45.51935,
    "Lng": -122.51901
  }
]